,City_Name,Cloudiness,Country,Date,Humidity,Lat,Long,Max Temp,Wind Speed,Max_Temp,Wind_Speed
0,cape town,0.0,ZA,1553392390,93.0,-33.93,18.42,,,70.0,6.93
1,thompson,5.0,CA,1553389200,46.0,55.74,-97.86,,,10.4,8.05
2,flinders,64.0,AU,1553391847,54.0,-34.58,150.85,,,87.01,1.12
3,sechura,44.0,PE,1553391790,77.0,-5.56,-80.82,,,75.54,10.2
4,mys shmidta,,,,,,,,,,
5,tautira,20.0,PF,1553391783,70.0,-17.73,-149.15,,,87.8,14.99
6,lerdo,0.0,MX,1553391967,68.0,18.63,-95.52,,,81.0,3.83
7,port hardy,75.0,CA,1553389200,62.0,50.7,-127.42,,,51.8,8.05
8,kapaa,90.0,US,1553392411,78.0,22.08,-159.32,,,78.8,21.92
9,butaritari,88.0,KI,1553391729,100.0,3.07,172.79,,,80.85,9.64
10,barentsburg,,,,,,,,,,
11,torbay,90.0,CA,1553391511,100.0,47.66,-52.73,,,37.99,14.99
12,klaksvik,88.0,FO,1553390400,86.0,62.23,-6.59,,,39.2,12.75
13,naron,0.0,ES,1553392407,93.0,43.52,-8.15,,,55.99,5.82
14,hithadhoo,76.0,MV,1553391736,98.0,-0.6,73.08,,,86.25,8.52
15,qaanaaq,12.0,GL,1553392594,81.0,77.48,-69.36,,,-26.89,10.76
16,ewa beach,75.0,US,1553392520,57.0,21.32,-158.01,,,82.0,8.05
17,staroutkinsk,44.0,RU,1553392595,90.0,57.23,59.33,,,31.08,5.61
18,jamestown,92.0,AU,1553392541,92.0,-33.21,138.6,,,66.9,20.27
19,salinopolis,80.0,BR,1553392470,100.0,-0.61,-47.36,,,79.68,11.54
20,marcona,,,,,,,,,,
21,tambopata,,,,,,,,,,
22,lorengau,68.0,PG,1553392068,97.0,-2.02,147.27,,,83.37,10.09
23,meulaboh,88.0,ID,1553391936,100.0,4.14,96.13,,,78.42,4.38
24,salalah,40.0,OM,1553388600,78.0,17.01,54.1,,,78.8,6.93
25,albany,1.0,US,1553392360,46.0,42.65,-73.75,,,33.01,10.29
26,filadelfia,24.0,PY,1553392524,87.0,-22.35,-60.04,,,73.2,2.59
27,tuktoyaktuk,75.0,CA,1553389200,78.0,69.44,-133.03,,,15.8,24.16
28,eldikan,,,,,,,,,,
29,taolanaro,,,,,,,,,,
30,lebu,20.0,ET,1553389200,51.0,8.96,38.73,,,59.0,4.7
31,dikson,68.0,RU,1553392597,95.0,73.51,80.55,,,17.94,23.51
32,san policarpo,76.0,PH,1553392597,82.0,12.18,125.51,,,81.57,13.44
33,taoudenni,68.0,ML,1553392098,19.0,22.68,-3.98,,,69.87,7.85
34,port alfred,68.0,ZA,1553392455,96.0,-33.59,26.89,,,64.99,12.1
35,mayumba,92.0,GA,1553392597,100.0,-3.44,10.65,,,78.06,5.95
36,touros,40.0,BR,1553389200,94.0,-5.2,-35.46,,,78.8,6.93
37,iskateley,92.0,RU,1553392405,89.0,67.68,53.15,,,30.45,21.83
38,amderma,,,,,,,,,,
39,saint anthony,20.0,US,1553392531,92.0,43.97,-111.68,,,44.6,4.7
40,bredasdorp,92.0,ZA,1553391903,83.0,-34.53,20.04,,,69.8,4.7
41,halalo,,,,,,,,,,
42,provideniya,44.0,RU,1553392092,100.0,64.42,-173.23,,,22.08,23.73
43,itarema,92.0,BR,1553392076,94.0,-2.92,-39.92,,,75.63,1.59
44,saskylakh,0.0,RU,1553392061,43.0,71.97,114.09,,,-14.29,3.27
45,college,75.0,US,1553392249,48.0,64.86,-147.8,,,51.8,4.7
46,ostrovnoy,0.0,RU,1553392599,87.0,68.05,39.51,,,30.0,19.04
47,westport,92.0,IE,1553391725,79.0,53.8,-9.52,,,44.01,7.0
48,belushya guba,,,,,,,,,,
49,pemangkat,,,,,,,,,,
50,mahebourg,75.0,MU,1553391539,88.0,-20.41,57.7,,,80.6,13.87
51,fairbanks,75.0,US,1553391905,48.0,64.84,-147.72,,,51.8,4.7
52,nizhneyansk,,,,,,,,,,
53,mount gambier,90.0,AU,1553389200,77.0,-37.83,140.78,,,68.0,11.41
54,pinas,0.0,FR,1553392465,81.0,43.12,0.44,,,46.99,5.82
55,palauig,0.0,PH,1553392468,65.0,15.44,119.9,,,84.9,3.6
56,raduzhnyy,88.0,RU,1553392600,94.0,62.1,77.47,,,26.13,6.17
57,vaini,0.0,IN,1553389200,59.0,15.34,74.49,,,66.2,1.7
58,atuona,92.0,PF,1553392601,99.0,-9.8,-139.03,,,82.65,16.46
59,half moon bay,20.0,US,1553392308,76.0,37.46,-122.43,,,59.0,8.05
60,rikitea,80.0,PF,1553392601,99.0,-23.12,-134.97,,,79.14,18.25
61,shelburne,5.0,CA,1553392081,72.0,44.08,-80.2,,,33.01,13.87
62,mataura,76.0,NZ,1553392207,79.0,-46.19,168.86,,,70.0,3.0
63,bluff,0.0,AU,1553392565,48.0,-23.58,149.07,,,90.66,8.3
64,busselton,12.0,AU,1553392517,37.0,-33.64,115.35,,,66.99,15.79
65,grindavik,20.0,IS,1553391998,100.0,63.84,-22.43,,,33.01,4.7
66,dali,0.0,CN,1553392107,66.0,25.6,100.24,,,57.63,6.17
67,ushuaia,20.0,AR,1553389200,66.0,-54.81,-68.31,,,53.6,18.34
68,codrington,0.0,AU,1553391959,55.0,-28.95,153.24,,,91.0,10.29
69,coihaique,0.0,CL,1553389200,76.0,-45.58,-72.07,,,51.8,2.24
70,aljezur,0.0,PT,1553392435,75.0,37.31,-8.8,,,57.99,16.8
71,hermanus,20.0,ZA,1553391903,96.0,-34.42,19.24,,,63.0,1.01
72,alyangula,40.0,AU,1553389200,70.0,-13.85,136.42,,,87.8,11.41
73,butembo,0.0,CD,1553392451,89.0,0.12,29.29,,,58.8,1.14
74,carnarvon,8.0,ZA,1553392603,23.0,-30.97,22.13,,,64.38,6.4
75,ishigaki,75.0,JP,1553389200,64.0,24.34,124.16,,,68.0,14.99
76,atar,0.0,MR,1553392377,68.0,20.52,-13.05,,,54.66,2.48
77,georgetown,20.0,GY,1553389200,78.0,6.8,-58.16,,,80.6,9.17
78,hobart,20.0,AU,1553392335,64.0,-42.88,147.33,,,71.01,10.29
79,pochutla,90.0,MX,1553388960,88.0,15.74,-96.47,,,82.4,8.97
80,namatanai,48.0,PG,1553391865,96.0,-3.66,152.44,,,84.27,4.61
81,severo-kurilsk,80.0,RU,1553392604,98.0,50.68,156.12,,,28.92,22.06
82,ampanihy,0.0,MG,1553392605,87.0,-24.69,44.75,,,70.32,10.42
83,ust-maya,0.0,RU,1553392605,49.0,60.42,134.54,,,13.89,3.71
84,qom,88.0,IR,1553392605,79.0,34.64,50.88,,,43.05,3.15
85,teguldet,68.0,RU,1553392605,84.0,57.31,88.17,,,29.28,3.38
86,hasaki,20.0,JP,1553391194,37.0,35.73,140.83,,,52.0,6.93
87,vostok,0.0,RU,1553392369,41.0,46.45,135.83,,,24.06,3.94
88,bethel,40.0,US,1553392380,92.0,60.79,-161.76,,,44.6,16.11
89,victoria,75.0,BN,1553389200,83.0,5.28,115.24,,,84.2,2.24
90,nikolskoye,75.0,RU,1553391005,86.0,59.7,30.79,,,39.2,4.47
91,tasiilaq,0.0,GL,1553388600,47.0,65.61,-37.64,,,12.2,3.36
92,palabuhanratu,,,,,,,,,,
93,laguna,5.0,MX,1553388000,40.0,27.52,-110.01,,,73.4,6.93
94,nanortalik,80.0,GL,1553392010,100.0,60.14,-45.24,,,24.6,22.5
95,lima,0.0,PE,1553392507,78.0,-12.06,-77.04,,,72.0,11.41
96,barrow,0.0,AR,1553392607,93.0,-38.31,-60.23,,,52.41,5.17
97,olinda,75.0,EC,1553392483,74.0,-2.03,-79.75,,,82.4,11.41
98,olga,75.0,US,1553392603,72.0,34.11,-118.17,,,64.4,4.7
99,khatanga,0.0,RU,1553392565,34.0,71.98,102.47,,,-9.88,6.06
100,upernavik,32.0,GL,1553392608,100.0,72.79,-56.15,,,-10.24,11.1
101,puerto ayora,24.0,EC,1553392002,96.0,-0.74,-90.35,,,78.01,3.0
102,aklavik,20.0,CA,1553389200,62.0,68.22,-135.01,,,23.0,12.75
103,aykhal,36.0,RU,1553392609,66.0,65.95,111.51,,,-2.05,5.61
104,new norfolk,20.0,AU,1553392048,64.0,-42.78,147.06,,,70.0,10.29
105,banff,92.0,CA,1553391544,83.0,51.18,-115.57,,,39.0,3.0
106,byron bay,0.0,AU,1553392562,52.0,-28.65,153.62,,,91.99,5.82
107,luganville,92.0,VU,1553392018,100.0,-15.51,167.18,,,75.09,3.71
108,zabol,0.0,IR,1553392080,94.0,31.03,61.49,,,57.45,9.64
109,kahului,40.0,US,1553391745,54.0,20.89,-156.47,,,82.4,24.16
110,pringsewu,20.0,ID,1553392610,81.0,-5.36,104.98,,,82.74,2.71
111,saint-philippe,1.0,CA,1553392566,78.0,45.36,-73.48,,,33.01,16.11
112,yellowknife,20.0,CA,1553392362,47.0,62.45,-114.38,,,12.2,10.29
113,axim,8.0,GH,1553392110,98.0,4.87,-2.24,,,82.92,8.08
114,de-kastri,0.0,RU,1553392610,88.0,51.48,140.77,,,22.71,10.2
115,berbera,,,,,,,,,,
116,mahibadhoo,8.0,MV,1553392008,100.0,3.78,72.97,,,84.63,10.98
117,xadani,,,,,,,,,,
118,kodiak,90.0,US,1553391988,87.0,39.95,-94.76,,,55.0,10.29
119,tartus,,,,,,,,,,
120,airai,32.0,TL,1553392075,65.0,-8.93,125.41,,,83.64,1.81
121,hilo,1.0,US,1553392531,61.0,19.71,-155.08,,,79.0,11.41
122,sataua,,,,,,,,,,
123,port macquarie,20.0,AU,1553392505,46.0,-31.43,152.91,,,91.0,2.24
124,yumen,0.0,CN,1553392145,43.0,40.29,97.04,,,41.88,0.58
125,iqaluit,90.0,CA,1553392363,78.0,63.75,-68.52,,,8.6,32.21
126,kapit,44.0,MY,1553392612,83.0,2.02,112.94,,,81.93,2.59
127,stratford-upon-avon,0.0,GB,1553392506,70.0,52.19,-1.71,,,45.0,2.24
128,tsihombe,,,,,,,,,,
129,tiksi,48.0,RU,1553392132,78.0,71.64,128.87,,,6.6,7.18
130,monteagudo,92.0,BO,1553392434,99.0,-19.8,-63.96,,,58.89,2.59
131,illoqqortoormiut,,,,,,,,,,
132,krasnoselkup,,,,,,,,,,
133,garissa,8.0,KE,1553392613,85.0,-0.46,39.64,,,74.37,6.29
134,puerto narino,75.0,CO,1553389200,100.0,-3.77,-70.38,,,77.0,1.81
135,rawson,0.0,AR,1553392370,67.0,-43.3,-65.11,,,55.47,15.79
136,broome,80.0,GB,1553392353,86.0,52.47,1.45,,,43.0,1.12
137,casablanca,40.0,MA,1553391973,45.0,33.6,-7.62,,,68.0,4.7
138,tabiauea,,,,,,,,,,
139,grand gaube,75.0,MU,1553392439,88.0,-20.01,57.66,,,80.6,13.87
140,hamilton,75.0,BM,1553391953,63.0,32.3,-64.78,,,64.4,20.8
141,vaitupu,,,,,,,,,,
142,constantine,20.0,DZ,1553391000,93.0,36.36,6.61,,,41.0,1.12
143,kalulushi,24.0,ZM,1553392615,83.0,-12.84,28.09,,,63.48,6.73
144,faya,0.0,SA,1553389200,50.0,18.39,42.45,,,57.2,5.82
145,saint george,0.0,GR,1553388600,81.0,39.45,22.34,,,42.8,4.7
146,luderitz,48.0,NA,1553392097,93.0,-26.65,15.16,,,57.63,9.75
147,sitka,0.0,US,1553391992,66.0,37.17,-99.65,,,53.01,1.01
148,nemuro,75.0,JP,1553389200,68.0,43.32,145.57,,,26.6,9.17
149,pierre,90.0,US,1553392180,93.0,44.37,-100.35,,,39.2,8.19
150,aswan,0.0,EG,1553389200,16.0,24.09,32.9,,,78.8,11.41
151,la ronge,40.0,CA,1553389200,62.0,55.1,-105.3,,,23.0,10.29
152,lasa,0.0,CY,1553391956,76.0,34.92,32.53,,,53.6,5.84
153,te anau,88.0,NZ,1553392606,68.0,-45.41,167.72,,,65.82,9.64
154,yining,92.0,CN,1553392047,100.0,29.04,114.56,,,43.68,3.27
155,deputatskiy,0.0,RU,1553392427,68.0,69.3,139.9,,,8.22,4.05
156,huarmey,44.0,PE,1553392137,82.0,-10.07,-78.15,,,66.36,2.93
157,camacha,20.0,PT,1553391000,77.0,33.08,-16.33,,,60.8,9.17
158,la rioja,0.0,AR,1553392617,76.0,-29.41,-66.86,,,66.63,8.75
159,constitucion,5.0,MX,1553388120,10.0,23.99,-104.67,,,73.4,10.29
160,basco,40.0,US,1553392270,57.0,40.33,-91.2,,,53.01,6.93
161,fortuna,0.0,ES,1553392042,76.0,38.18,-1.13,,,55.4,2.24
162,vila velha,75.0,BR,1553392800,88.0,-3.71,-38.6,,,79.0,2.24
163,saint-pierre,0.0,FR,1553392507,93.0,48.95,4.24,,,37.4,5.82
164,castro,75.0,CL,1553389200,87.0,-42.48,-73.76,,,51.8,5.82
165,ruteng,88.0,ID,1553392619,92.0,-8.61,120.46,,,77.7,5.61
166,kloulklubed,75.0,PW,1553388600,66.0,7.04,134.26,,,84.2,9.17
167,mar del plata,0.0,AR,1553392534,100.0,-46.43,-67.52,,,45.93,3.15
168,vila franca do campo,75.0,PT,1553392614,76.0,37.72,-25.43,,,55.0,17.22
169,masallatah,92.0,LY,1553392619,100.0,32.62,14.0,,,50.88,8.52
170,saint-georges,0.0,CA,1553392014,56.0,46.12,-70.67,,,28.99,5.01
171,kruisfontein,88.0,ZA,1553392620,83.0,-34.0,24.73,,,66.36,4.38
172,potiskum,64.0,NG,1553392620,28.0,11.71,11.08,,,75.72,9.98
173,linhares,88.0,BR,1553392620,87.0,-19.38,-40.06,,,75.27,8.75
174,qasigiannguit,68.0,GL,1553388600,54.0,68.82,-51.19,,,1.4,20.8
175,punta arenas,75.0,CL,1553392388,76.0,-53.16,-70.91,,,53.6,9.17
176,komsomolskiy,76.0,RU,1553392621,85.0,67.55,63.78,,,22.26,19.48
177,amazar,24.0,RU,1553392621,43.0,53.86,120.88,,,27.66,6.06
178,kenai,90.0,US,1553392037,86.0,60.55,-151.26,,,44.01,4.7
179,fort nelson,75.0,CA,1553389200,52.0,58.81,-122.69,,,42.8,5.82
180,kaeo,32.0,NZ,1553391484,78.0,-35.1,173.78,,,70.0,5.01
181,ribeira grande,56.0,PT,1553392577,100.0,38.52,-28.7,,,57.9,24.18
182,wakkanai,75.0,JP,1553389200,86.0,45.41,141.67,,,26.6,8.05
183,hofn,0.0,IS,1553392135,100.0,64.25,-15.21,,,38.46,20.49
184,ardakan,0.0,IR,1553389200,25.0,32.31,54.02,,,51.8,2.24
185,turtkul,,,,,,,,,,
186,souillac,0.0,FR,1553392527,71.0,45.6,-0.6,,,50.0,2.24
187,mineros,75.0,BO,1553389200,88.0,-17.12,-63.23,,,75.2,4.7
188,hermosillo,0.0,MX,1553392585,31.0,29.09,-110.96,,,79.0,3.0
189,mandera,0.0,ET,1553392623,55.0,3.94,41.86,,,74.19,6.4
190,clyde river,90.0,CA,1553390940,75.0,70.47,-68.59,,,-14.81,19.46
191,zhigansk,64.0,RU,1553392037,65.0,66.77,123.37,,,12.72,9.64
192,alotau,,,,,,,,,,
193,kudahuvadhoo,88.0,MV,1553392091,100.0,2.67,72.89,,,84.72,11.65
194,misratah,56.0,LY,1553392624,97.0,32.38,15.09,,,57.63,8.52
195,urumqi,,,,,,,,,,
196,avera,1.0,US,1553392599,58.0,33.19,-82.53,,,55.99,3.36
197,belozerskoye,24.0,RU,1553392625,87.0,55.82,65.58,,,23.43,1.81
198,ketchikan,90.0,US,1553388960,87.0,55.34,-131.65,,,51.8,8.05
199,rauma,0.0,FI,1553390400,55.0,61.13,21.5,,,37.4,17.22
200,beringovskiy,92.0,RU,1553392625,88.0,63.05,179.32,,,16.77,19.6
201,vao,44.0,EE,1553392057,84.0,59.1,26.19,,,34.05,13.11
202,general roca,0.0,AR,1553389200,45.0,-39.03,-67.58,,,62.6,7.52
203,mumford,20.0,GH,1553392626,95.0,5.26,-0.76,,,75.27,4.38
204,oranjemund,92.0,ZA,1553392038,92.0,-28.55,16.43,,,62.22,2.48
205,tianpeng,92.0,CN,1553392626,100.0,28.88,112.34,,,47.37,4.61
206,yanacancha,92.0,PE,1553392626,100.0,-10.53,-76.18,,,44.4,1.36
207,malyye derbety,88.0,RU,1553392627,92.0,47.95,44.68,,,31.98,6.17
208,loukhi,0.0,RU,1553392627,73.0,66.08,33.04,,,29.73,10.09
209,the valley,20.0,AI,1553392039,74.0,18.22,-63.06,,,78.8,9.17
210,loei,0.0,TH,1553391223,73.0,17.49,101.72,,,84.0,2.24
211,port blair,0.0,IN,1553392627,100.0,11.67,92.75,,,82.2,7.74
212,faanui,32.0,PF,1553392627,100.0,-16.48,-151.75,,,84.81,10.65
213,ilulissat,68.0,GL,1553388600,54.0,69.22,-51.1,,,1.4,20.8
214,portland,1.0,US,1553392529,58.0,45.52,-122.67,,,55.99,9.17
215,urucara,24.0,BR,1553392628,93.0,-2.54,-57.76,,,76.35,2.37
216,sinnamary,100.0,GF,1553392090,99.0,5.38,-52.96,,,78.78,11.54
217,jinxi,92.0,CN,1553392628,100.0,27.92,116.75,,,50.43,6.51
218,timmins,5.0,CA,1553389200,32.0,48.48,-81.33,,,41.0,10.29
219,samana,56.0,EC,1553392629,90.0,0.12,-76.97,,,73.29,1.59
220,katsuura,40.0,JP,1553392117,46.0,33.93,134.5,,,50.0,8.05
221,arraial do cabo,12.0,BR,1553392534,92.0,-22.97,-42.02,,,77.88,9.75
222,chernyshevskiy,48.0,RU,1553392629,61.0,63.01,112.47,,,9.03,6.4
223,bengkulu,,,,,,,,,,
224,kavieng,80.0,PG,1553392629,100.0,-2.57,150.8,,,80.76,6.62
225,ovsyanka,80.0,RU,1553392630,47.0,53.58,126.91,,,23.25,4.83
226,sioux lookout,40.0,CA,1553389200,56.0,50.1,-91.92,,,44.6,4.7
227,muscat,40.0,OM,1553388600,88.0,23.6,58.55,,,75.2,4.7
228,adrar,0.0,DZ,1553389200,28.0,27.87,-0.29,,,59.0,11.41
229,ola,32.0,RU,1553392630,93.0,59.58,151.3,,,26.85,21.5
230,norman wells,75.0,CA,1553389200,64.0,65.28,-126.83,,,33.8,16.11
231,bonthe,44.0,SL,1553392631,85.0,7.53,-12.5,,,78.78,2.71
232,svetlogorsk,92.0,RU,1553389200,92.0,53.14,59.15,,,23.0,2.24
233,qaqortoq,80.0,GL,1553388600,36.0,60.72,-46.03,,,15.8,4.7
234,comrat,0.0,MD,1553392632,70.0,46.3,28.66,,,29.55,3.49
235,bargal,,,,,,,,,,
236,erenhot,0.0,CN,1553392632,53.0,43.65,111.97,,,41.43,8.75
237,bambous virieux,75.0,MU,1553392439,88.0,-20.34,57.76,,,80.6,13.87
238,det udom,75.0,TH,1553389200,94.0,14.9,105.08,,,77.0,2.24
239,hammerfest,76.0,NO,1553390400,68.0,70.66,23.68,,,30.2,10.29
240,solnechnyy,0.0,RU,1553391818,59.0,50.72,136.64,,,24.78,3.49
241,evensk,0.0,RU,1553392633,89.0,61.92,159.24,,,30.36,15.23
242,kintampo,92.0,GH,1553392633,76.0,8.05,-1.73,,,76.8,8.08
243,lompoc,75.0,US,1553392047,71.0,34.64,-120.46,,,62.01,19.46
244,yar-sale,24.0,RU,1553392401,77.0,66.83,70.83,,,11.1,7.63
245,lucapa,32.0,AO,1553392633,96.0,-8.42,20.74,,,68.43,2.37
246,nova venecia,88.0,BR,1553392362,93.0,-18.71,-40.4,,,73.65,8.41
247,rio grande,0.0,BR,1553392634,97.0,-32.03,-52.1,,,66.27,9.98
248,sorland,44.0,NO,1553392098,100.0,67.67,12.69,,,39.54,36.82
249,east london,0.0,ZA,1553392568,91.0,-33.02,27.91,,,75.63,21.72
250,shingu,40.0,JP,1553389200,53.0,33.72,135.99,,,50.0,12.75
251,narrabri,36.0,AU,1553389200,24.0,-30.33,149.78,,,95.0,16.11
252,lufilufi,92.0,WS,1553392384,70.0,-13.87,-171.6,,,87.01,5.01
253,namibe,88.0,AO,1553392123,100.0,-15.19,12.15,,,78.06,1.36
254,issia,0.0,CI,1553392635,80.0,6.49,-6.58,,,73.74,4.16
255,chervone,0.0,UA,1553392635,96.0,47.06,32.37,,,31.35,7.29
256,cidreira,0.0,BR,1553392636,93.0,-30.17,-50.22,,,62.13,6.17
257,high prairie,24.0,CA,1553392636,60.0,55.43,-116.48,,,40.98,6.73
258,tura,0.0,IN,1553392312,71.0,25.52,90.21,,,70.86,4.72
259,ayr,0.0,GB,1553392305,86.0,55.46,-4.63,,,44.6,9.17
260,bitung,40.0,ID,1553391000,70.0,1.44,125.19,,,86.0,5.82
261,bolungarvik,,,,,,,,,,
262,concordia,12.0,AR,1553392612,77.0,-31.4,-58.02,,,64.99,2.59
263,payakumbuh,20.0,ID,1553392637,70.0,-0.23,100.63,,,83.73,2.04
264,tolentino,0.0,IT,1553392592,52.0,43.21,13.28,,,51.01,2.24
265,olafsvik,,,,,,,,,,
266,muhos,92.0,FI,1553392200,64.0,64.81,26.0,,,37.4,19.46
267,ndele,,,,,,,,,,
268,mazyr,64.0,BY,1553392638,63.0,52.05,29.27,,,31.89,11.21
269,dunedin,8.0,NZ,1553391828,73.0,-45.87,170.5,,,68.0,7.0
270,kalmunai,0.0,LK,1553392638,83.0,7.42,81.82,,,81.66,3.94
271,kensington,90.0,CA,1553392366,87.0,46.44,-63.64,,,32.0,23.04
272,pisco,0.0,PE,1553389200,73.0,-13.71,-76.2,,,71.6,17.22
273,mandalgovi,0.0,MN,1553392639,65.0,45.76,106.27,,,35.13,10.76
274,tadine,68.0,NC,1553392462,87.0,-21.55,167.88,,,82.29,16.91
275,melbu,88.0,NO,1553391977,90.0,68.5,14.83,,,37.0,8.01
276,haines junction,56.0,CA,1553392639,54.0,60.75,-137.51,,,35.04,5.06
277,ponta do sol,64.0,BR,1553392639,92.0,-20.63,-46.0,,,67.26,2.93
278,magadan,32.0,RU,1553392399,96.0,59.56,150.8,,,27.66,18.59
279,tsuyama,75.0,JP,1553392563,75.0,35.14,134.03,,,52.0,6.93
280,cap malheureux,75.0,MU,1553392439,88.0,-19.98,57.61,,,80.6,13.87
281,monticello,1.0,US,1553392617,76.0,45.31,-93.79,,,46.4,7.74
282,portree,92.0,GB,1553391924,85.0,57.41,-6.19,,,41.0,11.01
283,esperance,20.0,TT,1553392507,78.0,10.24,-61.45,,,78.01,8.05
284,gbongan,76.0,NG,1553392641,83.0,7.47,4.35,,,77.97,3.6
285,vardo,1.0,US,1553392048,31.0,39.62,-77.74,,,46.4,8.05
286,leningradskiy,76.0,RU,1553391800,83.0,69.38,178.42,,,-2.23,19.82
287,uzhur,80.0,RU,1553392641,68.0,55.32,89.85,,,33.78,3.38
288,bambanglipuro,64.0,ID,1553392641,98.0,-7.95,110.28,,,81.75,4.38
289,imbituba,20.0,BR,1553389200,78.0,-28.24,-48.67,,,71.6,4.7
290,haverfordwest,76.0,GB,1553391915,81.0,51.8,-4.97,,,46.99,6.93
291,puro,0.0,PH,1553392642,64.0,13.13,123.76,,,83.46,12.55
292,umzimvubu,,,,,,,,,,
293,bontang,8.0,ID,1553392642,86.0,0.12,117.47,,,85.26,10.87
294,mizdah,64.0,LY,1553392642,94.0,31.45,12.98,,,46.2,10.2
295,cosala,,,,,,,,,,
296,yairipok,0.0,IN,1553392643,62.0,24.67,94.07,,,75.0,1.14
297,nanning,90.0,CN,1553389200,93.0,22.83,108.3,,,53.6,4.47
298,bilibino,0.0,RU,1553392371,67.0,68.06,166.44,,,14.7,3.04
299,scarborough,64.0,GB,1553392502,80.0,54.28,-0.41,,,44.01,1.12
300,saldanha,0.0,PT,1553392475,90.0,41.42,-6.55,,,36.21,3.04
301,petropavlovka,32.0,RU,1553392643,50.0,50.61,105.32,,,37.56,3.71
302,inverell,0.0,AU,1553392492,36.0,-29.78,151.11,,,93.0,7.0
303,coulihaut,,,,,,,,,,
304,qandala,0.0,SO,1553392644,100.0,11.47,49.87,,,65.64,4.38
305,sumter,1.0,US,1553392500,70.0,33.92,-80.34,,,55.0,4.72
306,svetlyy,,,,,,,,,,
307,artyk,,,,,,,,,,
308,angra,,,,,,,,,,
309,shebunino,0.0,RU,1553389200,86.0,57.66,40.04,,,30.2,6.71
310,key largo,1.0,US,1553392453,64.0,25.09,-80.45,,,72.0,4.7
311,makakilo city,75.0,US,1553392360,54.0,21.35,-158.09,,,82.4,5.82
312,saint-marc,88.0,HT,1553392645,100.0,19.1,-72.7,,,70.86,3.83
313,minab,0.0,IR,1553389200,63.0,27.15,57.07,,,66.2,1.12
314,zhoucheng,80.0,CN,1553389200,62.0,31.35,119.33,,,51.8,6.71
315,ust-tsilma,88.0,RU,1553392646,73.0,65.44,52.15,,,31.8,11.32
316,uige,92.0,AO,1553392646,97.0,-7.61,15.06,,,66.36,2.59
317,chaman,48.0,AF,1553392646,82.0,30.92,66.46,,,46.65,3.27
318,novyy urengoy,80.0,RU,1553392646,91.0,66.08,76.63,,,22.17,6.06
319,flin flon,0.0,CA,1553392647,53.0,54.77,-101.88,,,15.33,8.63
320,say,0.0,NE,1553389200,8.0,13.1,2.36,,,82.4,4.7
321,coahuayana,0.0,MX,1553392437,57.0,18.62,-100.35,,,62.76,2.04
322,digby,92.0,CA,1553391980,83.0,44.62,-65.76,,,37.0,15.99
323,majene,8.0,ID,1553392585,90.0,-3.54,118.97,,,84.99,10.42
324,kaitangata,100.0,NZ,1553392647,67.0,-46.28,169.85,,,69.42,3.71
325,birao,0.0,CF,1553391822,50.0,10.3,22.78,,,68.25,3.6
326,limon,90.0,US,1553392640,100.0,39.26,-103.69,,,37.99,19.46
327,guerrero negro,0.0,MX,1553392562,88.0,27.97,-114.04,,,58.26,8.75
328,chuy,0.0,UY,1553392648,92.0,-33.69,-53.46,,,64.2,13.0
329,derzhavinsk,80.0,KZ,1553392648,98.0,51.1,66.31,,,31.98,4.05
330,tomohon,40.0,ID,1553391000,70.0,1.33,124.84,,,86.0,5.82
331,oksfjord,88.0,NO,1553390400,68.0,70.24,22.35,,,32.0,10.29
332,rungata,,,,,,,,,,
333,saint-felicien,5.0,CA,1553392571,42.0,48.65,-72.45,,,27.0,8.05
334,charagua,88.0,BO,1553392649,93.0,-19.79,-63.2,,,68.79,3.27
335,utiroa,,,,,,,,,,
336,cherskiy,12.0,RU,1553392087,66.0,68.75,161.3,,,10.2,2.37
337,asau,,,,,,,,,,
338,novikovo,64.0,UA,1553392650,100.0,45.05,34.56,,,35.04,7.63
339,riwaka,0.0,NZ,1553392476,67.0,-41.08,173.0,,,77.0,1.99
340,mehamn,32.0,NO,1553392539,76.0,71.03,27.85,,,23.07,7.07
341,farmington,75.0,US,1553392283,34.0,36.73,-108.21,,,53.6,12.75
342,sangar,36.0,RU,1553392495,60.0,63.92,127.47,,,14.25,3.04
343,huejucar,0.0,MX,1553392651,52.0,22.35,-103.22,,,52.41,2.93
344,sesheke,0.0,NA,1553392651,64.0,-17.47,24.29,,,67.62,3.38
345,saint paul,1.0,US,1553392626,65.0,44.95,-93.1,,,46.4,3.36
346,chokurdakh,24.0,RU,1553392652,98.0,70.62,147.9,,,-0.34,4.38
347,atyrau,0.0,KZ,1553391000,80.0,47.1,51.92,,,39.2,11.18
348,darab,92.0,IR,1553392099,96.0,28.75,54.55,,,40.98,3.15
349,abu samrah,80.0,SY,1553392652,89.0,35.3,37.18,,,48.63,3.27
350,ciudad bolivar,0.0,VE,1553392652,42.0,8.12,-63.55,,,83.64,15.12
351,saint-augustin,0.0,FR,1553392449,81.0,44.83,-0.61,,,53.01,2.59
352,dingle,0.0,PH,1553392653,55.0,11.0,122.67,,,84.63,15.68
353,kulu,76.0,CD,1553392653,95.0,3.47,23.69,,,72.3,3.71
354,kavaratti,12.0,IN,1553392073,100.0,10.57,72.64,,,83.46,10.76
355,avarua,92.0,CK,1553391000,94.0,-21.21,-159.78,,,77.0,6.93
356,zhuanghe,0.0,CN,1553392633,91.0,39.7,122.97,,,42.01,1.01
357,roald,40.0,NO,1553392504,80.0,62.58,6.12,,,41.0,23.04
358,tomatlan,0.0,MX,1553392654,79.0,19.93,-105.25,,,68.16,2.59
359,samusu,,,,,,,,,,
360,pavagada,68.0,IN,1553392654,38.0,14.1,77.28,,,82.83,7.96
361,kazalinsk,,,,,,,,,,
362,tuatapere,44.0,NZ,1553392207,79.0,-46.13,167.69,,,70.0,3.0
363,monastyrshchina,92.0,RU,1553392655,93.0,54.35,31.84,,,33.33,15.46
364,udachnyy,36.0,RU,1553392486,54.0,66.42,112.4,,,-1.33,3.49
365,ancud,75.0,CL,1553389200,87.0,-41.87,-73.83,,,51.8,5.82
366,bandarbeyla,76.0,SO,1553392089,100.0,9.49,50.81,,,79.32,9.53
367,port elizabeth,1.0,US,1553392611,30.0,39.31,-74.98,,,46.4,9.17
368,talnakh,76.0,RU,1553392587,83.0,69.49,88.39,,,8.94,7.18
369,carlsbad,92.0,CZ,1553392800,86.0,50.23,12.87,,,46.0,6.93
370,ngorongoro,0.0,TZ,1553392656,88.0,-3.24,35.49,,,50.52,3.6
371,polyarnyy,0.0,RU,1553391000,79.0,69.2,33.45,,,28.4,6.71
372,willowmore,92.0,ZA,1553392656,75.0,-33.3,23.49,,,58.89,1.48
373,arroyo,1.0,US,1553392523,48.0,41.39,-78.88,,,34.0,5.82
374,gat,0.0,SN,1553391000,82.0,14.69,-16.54,,,64.4,14.99
375,akyab,,,,,,,,,,
376,san cristobal,20.0,EC,1553391920,93.0,-0.39,-78.55,,,55.4,1.12
377,inhambane,64.0,MZ,1553392657,89.0,-23.87,35.38,,,76.71,10.31
378,bayir,0.0,TR,1553391480,30.0,37.27,28.22,,,55.4,18.34
379,luceville,,,,,,,,,,
380,kashiwazaki,88.0,JP,1553391603,70.0,37.37,138.57,,,39.99,1.01
381,narsaq,76.0,GL,1553388600,36.0,60.91,-46.05,,,15.8,4.7
382,ajdabiya,64.0,LY,1553392658,81.0,30.75,20.22,,,56.46,10.65
383,eydhafushi,0.0,MV,1553392658,95.0,5.1,73.07,,,85.62,9.75
384,natitingou,44.0,BJ,1553392659,55.0,10.31,1.38,,,74.28,5.95
385,lagoa,0.0,PT,1553392435,76.0,37.14,-8.45,,,57.99,10.29
386,nizwa,56.0,OM,1553392425,77.0,22.93,57.53,,,64.65,4.38
387,riberalta,48.0,BO,1553392659,95.0,-11.0,-66.08,,,74.46,2.15
388,betare oya,56.0,CM,1553392659,97.0,5.6,14.08,,,65.82,3.38
389,pacific grove,1.0,US,1553392640,71.0,36.62,-121.92,,,60.01,9.17
390,peniche,0.0,PT,1553392382,51.0,39.36,-9.38,,,60.8,12.75
391,umm kaddadah,0.0,SD,1553392660,27.0,13.6,26.69,,,65.64,2.93
392,bollnas,0.0,SE,1553392660,50.0,61.35,16.39,,,34.23,11.43
393,berlevag,12.0,NO,1553392660,100.0,70.86,29.09,,,24.96,8.75
394,matara,56.0,PE,1553392390,93.0,-13.74,-72.9,,,41.43,1.48
395,port augusta,92.0,AU,1553392117,78.0,-32.49,137.76,,,73.4,9.17
396,ler,40.0,NO,1553392515,69.0,63.2,10.3,,,37.99,27.51
397,kindu,56.0,CD,1553392661,96.0,-2.95,25.92,,,72.57,2.37
398,mayor pablo lagerenza,88.0,PY,1553392661,68.0,-19.93,-60.77,,,80.22,5.39
399,cockburn town,12.0,TC,1553392583,96.0,21.46,-71.14,,,79.32,14.23
400,christchurch,0.0,NZ,1553392385,64.0,-43.53,172.64,,,73.0,11.41
401,twin falls,90.0,US,1553391932,75.0,42.57,-114.46,,,51.01,9.17
402,windsor,1.0,US,1553392612,81.0,42.3,-83.03,,,41.0,5.82
403,daru,48.0,SL,1553392662,87.0,7.99,-10.85,,,72.66,2.93
404,kulachi,92.0,PK,1553392663,86.0,31.93,70.46,,,54.57,2.93
405,viligili,,,,,,,,,,
406,barcelos,0.0,PT,1553392625,66.0,41.53,-8.62,,,55.99,4.7
407,phuket,20.0,TH,1553389200,70.0,7.89,98.4,,,84.2,3.36
408,simplicio mendes,56.0,BR,1553392663,96.0,-7.85,-41.91,,,71.04,4.38
409,alofi,64.0,NU,1553389200,58.0,-19.06,-169.92,,,84.2,13.87
410,tsabong,12.0,BW,1553392464,36.0,-26.02,22.4,,,76.53,17.36
411,bijar,32.0,IR,1553392664,72.0,35.87,47.6,,,20.28,2.59
412,vangaindrano,92.0,MG,1553392664,100.0,-23.35,47.6,,,68.07,3.38
413,atambua,44.0,ID,1553392458,100.0,-9.11,124.89,,,81.66,4.72
414,belmonte,0.0,PT,1553391914,59.0,40.36,-7.35,,,54.0,1.01
415,dickinson,1.0,US,1553392510,80.0,46.88,-102.79,,,46.99,6.93
416,staunton,1.0,US,1553392506,59.0,38.15,-79.07,,,46.99,4.16
417,forestville,20.0,CA,1553389200,55.0,48.74,-69.09,,,35.6,16.11
418,garowe,92.0,SO,1553392665,89.0,8.41,48.48,,,70.41,8.41
419,alekseyevsk,20.0,RU,1553392665,50.0,57.84,108.35,,,13.08,5.73
420,cartagena,0.0,ES,1553392362,93.0,37.63,-1.0,,,53.6,6.93
421,los llanos de aridane,92.0,ES,1553392560,55.0,28.66,-17.92,,,62.6,8.05
422,longyearbyen,20.0,NO,1553392200,61.0,78.22,15.63,,,17.6,8.05
423,luancheng,0.0,CN,1553389200,26.0,37.88,114.65,,,46.4,4.47
424,baruun-urt,48.0,MN,1553392666,40.0,46.68,113.28,,,39.27,12.1
425,uruzgan,0.0,AF,1553392666,57.0,32.93,66.63,,,27.03,3.27
426,luena,20.0,AO,1553392667,66.0,-11.78,19.91,,,64.2,5.39
427,paamiut,44.0,GL,1553392667,100.0,61.99,-49.67,,,20.19,9.64
428,cayeli,88.0,TR,1553392658,81.0,41.09,40.73,,,19.65,1.36
429,mitu,24.0,IR,1553392416,75.0,36.2,46.09,,,22.62,2.15
430,yeppoon,40.0,AU,1553389200,52.0,-23.13,150.74,,,87.8,9.17
431,weihai,0.0,CN,1553392537,39.0,37.5,122.11,,,57.99,1.99
432,shimoda,20.0,JP,1553391772,40.0,34.7,138.93,,,51.8,4.7
433,landeck,0.0,AT,1553392408,84.0,47.14,10.57,,,44.01,2.24
434,ikalamavony,48.0,MG,1553392668,95.0,-21.17,46.6,,,60.06,2.93
435,khonuu,,,,,,,,,,
436,skjervoy,92.0,NO,1553392668,100.0,70.03,20.97,,,35.13,8.41
437,banda aceh,20.0,ID,1553392521,69.0,5.56,95.32,,,85.26,2.93
438,palana,8.0,RU,1553392669,48.0,59.08,159.95,,,29.1,4.38
439,ornskoldsvik,8.0,SE,1553390400,55.0,63.29,18.72,,,37.4,27.51
440,kawalu,24.0,ID,1553392506,76.0,-7.38,108.21,,,79.14,2.37
441,nome,40.0,US,1553392646,63.0,30.04,-94.42,,,66.2,5.82
442,fallon,1.0,US,1553388960,66.0,46.84,-105.12,,,51.8,3.36
443,aracati,88.0,BR,1553392669,95.0,-4.56,-37.77,,,75.36,3.15
444,sao filipe,68.0,CV,1553392670,100.0,14.9,-24.5,,,69.15,11.65
445,pevek,0.0,RU,1553392670,76.0,69.7,170.27,,,-3.58,3.6
446,talakan,76.0,RU,1553392670,46.0,50.29,130.28,,,23.7,8.63
447,toliary,,,,,,,,,,
448,adre,0.0,TD,1553392274,55.0,13.47,22.2,,,66.18,2.93
449,turukhansk,80.0,RU,1553392131,91.0,65.8,87.96,,,21.09,6.62
450,snasa,92.0,NO,1553392671,83.0,64.25,12.38,,,30.09,11.21
451,maceio,20.0,BR,1553389200,88.0,-9.67,-35.74,,,78.8,2.24
452,wanning,0.0,AT,1553392662,86.0,48.64,13.53,,,46.99,1.12
453,satitoa,,,,,,,,,,
454,moses lake,20.0,US,1553392236,36.0,47.13,-119.28,,,62.6,3.6
455,maidstone,64.0,GB,1553392657,86.0,51.27,0.52,,,44.01,2.24
456,ahipara,100.0,NZ,1553392672,73.0,-35.17,173.16,,,73.2,5.17
457,port moresby,90.0,PG,1553389200,74.0,-9.47,147.16,,,82.4,5.82
458,parrita,0.0,CR,1553392800,64.0,9.52,-84.33,,,69.8,10.29
459,strezhevoy,90.0,RU,1553391000,100.0,60.73,77.6,,,26.6,4.47
460,poum,0.0,MK,1553392076,80.0,41.28,20.71,,,28.02,1.7
461,atakpame,48.0,TG,1553392673,85.0,7.53,1.13,,,73.65,4.16
462,gambo,80.0,NG,1553392673,33.0,11.96,9.63,,,76.98,7.74
463,ferkessedougou,0.0,CI,1553392673,52.0,9.6,-5.2,,,75.36,3.71
464,sabang,0.0,PH,1553392674,72.0,13.72,123.58,,,82.83,12.66
465,quatre cocos,75.0,MU,1553392439,88.0,-20.21,57.76,,,80.6,13.87
466,iquique,0.0,CL,1553389200,68.0,-20.22,-70.14,,,69.8,11.41
467,moron,68.0,VE,1553392674,92.0,10.49,-68.2,,,66.45,2.48
468,merauke,36.0,ID,1553392606,99.0,-8.49,140.4,,,81.39,9.86
469,champerico,5.0,MX,1553388420,61.0,16.38,-93.6,,,80.6,18.34
470,along,0.0,IN,1553392675,76.0,28.17,94.8,,,60.42,1.7
471,araouane,64.0,ML,1553392675,17.0,18.9,-3.53,,,69.06,6.17
472,kalangala,0.0,UG,1553392675,92.0,-0.32,32.29,,,79.77,8.19
473,saint-francois,0.0,FR,1553391906,93.0,46.42,3.91,,,35.6,2.59
474,loiza,1.0,PR,1553392520,69.0,18.43,-65.88,,,78.8,5.82
475,jumla,0.0,NP,1553392676,72.0,29.28,82.18,,,34.23,1.92
476,falealupo,,,,,,,,,,
477,samarai,92.0,PG,1553392676,100.0,-10.62,150.67,,,79.59,8.97
478,ambilobe,48.0,MG,1553392631,96.0,-13.19,49.05,,,72.57,2.59
479,manzhouli,0.0,CN,1553392677,36.0,49.6,117.43,,,33.96,15.79
480,urengoy,80.0,RU,1553392677,97.0,65.96,78.37,,,24.42,5.06
481,talaya,75.0,RU,1553392533,96.0,55.79,84.89,,,33.01,8.95
482,yaan,88.0,NG,1553392677,89.0,7.38,8.57,,,76.35,12.77
483,saint-joseph,0.0,FR,1553391093,61.0,43.56,6.97,,,62.01,5.82
484,baykit,88.0,RU,1553392677,76.0,61.68,96.39,,,18.03,3.94
485,shakiso,0.0,ET,1553392678,72.0,5.77,38.9,,,50.7,2.71
486,barmer,0.0,IN,1553392131,35.0,25.74,71.4,,,76.53,3.04
487,boueni,0.0,YT,1553391000,94.0,-12.9,45.08,,,80.6,2.24
488,virginia beach,1.0,US,1553392667,43.0,36.85,-75.98,,,51.8,5.5
489,port-cartier,90.0,CA,1553392397,63.0,50.03,-66.88,,,28.99,6.93
490,vila,0.0,IT,1553392425,87.0,45.18,8.4,,,55.0,6.93
491,nelson bay,0.0,AU,1553392299,55.0,-32.72,152.14,,,89.01,9.17
492,attawapiskat,,,,,,,,,,
493,lavrentiya,92.0,RU,1553392120,100.0,65.58,-170.99,,,19.74,18.92
494,yerbogachen,48.0,RU,1553392679,46.0,61.28,108.01,,,9.66,6.4
495,tiznit,92.0,MA,1553392507,100.0,29.7,-9.73,,,59.7,6.06
496,urubicha,20.0,BO,1553392679,92.0,-15.63,-63.08,,,73.56,2.48
497,brae,92.0,GB,1553390400,86.0,60.4,-1.35,,,42.8,16.11
498,manaure,8.0,CO,1553392680,90.0,11.78,-72.45,,,78.51,20.49
499,skibbereen,40.0,IE,1553391000,80.0,51.55,-9.27,,,39.2,6.93
500,oktyabrskoye,75.0,RU,1553392533,91.0,56.73,85.44,,,33.01,8.95
501,padinska skela,0.0,RS,1553392563,69.0,44.94,20.43,,,45.0,3.36
502,caravelas,44.0,BR,1553392681,100.0,-17.73,-39.27,,,82.38,16.8
503,richards bay,8.0,ZA,1553392527,95.0,-28.77,32.06,,,69.6,9.75
504,palmer,0.0,AU,1553392287,57.0,-34.85,139.16,,,80.01,11.41
505,neyshabur,0.0,IR,1553392681,80.0,36.21,58.79,,,33.15,3.6
506,eldorado,5.0,MX,1553392637,32.0,24.32,-107.36,,,84.2,5.82
507,susanville,1.0,US,1553392378,60.0,40.42,-120.65,,,42.8,12.75
508,qeshm,40.0,IR,1553389200,88.0,26.96,56.27,,,68.0,4.7
509,kailua,75.0,US,1553392660,47.0,21.39,-157.74,,,82.0,13.87
510,shizunai,24.0,JP,1553392682,85.0,42.33,142.37,,,31.17,12.66
511,kidal,76.0,ML,1553392682,16.0,18.44,1.41,,,67.89,3.49
512,omoa,20.0,HN,1553389200,65.0,15.77,-88.03,,,77.0,9.17
513,nsanje,92.0,MZ,1553392683,98.0,-16.92,35.26,,,70.5,3.83
514,parati,0.0,BR,1553389200,69.0,-20.51,-54.63,,,77.0,9.17
515,necochea,64.0,AR,1553392590,79.0,-38.55,-58.74,,,60.01,1.01
516,riyadh,0.0,SA,1553389200,77.0,24.63,46.72,,,66.2,3.36
517,palencia,8.0,ES,1553392430,71.0,42.01,-4.53,,,51.01,3.0
518,vidor,40.0,US,1553392507,63.0,30.13,-94.02,,,66.2,5.82
519,port hawkesbury,90.0,CA,1553392545,92.0,45.62,-61.36,,,35.01,18.34
520,san juan del sur,12.0,NI,1553392569,60.0,11.25,-85.87,,,82.83,19.26
521,ugoofaaru,0.0,MV,1553392684,95.0,5.67,73.0,,,85.62,9.75
522,itoman,75.0,JP,1553392388,55.0,26.12,127.67,,,69.01,12.75
523,soyo,64.0,AO,1553392685,97.0,-6.13,12.37,,,74.91,2.59
524,comodoro rivadavia,0.0,AR,1553389200,76.0,-45.87,-67.48,,,57.2,1.12
525,ajaccio,0.0,FR,1553391000,70.0,41.93,8.74,,,51.8,5.82
526,bubaque,32.0,GW,1553392685,100.0,11.28,-15.83,,,76.35,14.12
527,nara,20.0,JP,1553392593,72.0,34.68,135.8,,,51.01,2.24
528,verkh-usugli,0.0,RU,1553392686,45.0,52.7,115.17,,,25.86,9.42
529,kirakira,56.0,SB,1553392686,100.0,-10.46,161.92,,,83.91,9.64
530,turka,0.0,UA,1553392570,68.0,49.16,23.03,,,32.0,3.6
531,pontal do parana,75.0,BR,1553389200,94.0,-25.67,-48.51,,,71.6,3.71
532,vyshkov,48.0,RU,1553389200,80.0,52.48,31.69,,,35.6,11.18
533,margate,20.0,AU,1553392645,64.0,-43.03,147.26,,,70.0,10.29
534,glubczyce,75.0,PL,1553392479,76.0,50.2,17.83,,,48.2,5.82
535,vista hermosa,8.0,MX,1553392687,71.0,17.8,-97.76,,,55.29,3.27
536,aflu,,,,,,,,,,
537,yerofey pavlovich,64.0,RU,1553392688,50.0,53.97,121.97,,,25.5,2.15
538,kondinskoye,0.0,RU,1553392635,73.0,59.65,67.41,,,19.2,2.82
539,ghanzi,0.0,BW,1553392688,50.0,-21.7,21.65,,,69.15,12.33
540,prince george,1.0,CA,1553389200,52.0,53.92,-122.75,,,46.4,2.37
541,saint-louis,0.0,CH,1553392380,86.0,47.59,7.56,,,45.0,4.7
542,maun,0.0,BW,1553389200,53.0,-19.99,23.42,,,75.2,8.05
543,hokitika,100.0,NZ,1553392689,90.0,-42.72,170.96,,,65.73,5.39
544,moyale,0.0,ET,1553392689,51.0,3.52,39.05,,,64.65,4.83
545,bur gabo,,,,,,,,,,
546,panzhihua,64.0,CN,1553392665,50.0,26.59,101.72,,,66.99,4.05
547,george,20.0,NG,1553389200,88.0,6.63,3.35,,,82.4,3.36
548,walvis bay,0.0,NA,1553389345,77.0,-22.95,14.51,,,64.0,8.05
549,port-gentil,88.0,GA,1553392438,100.0,-0.72,8.78,,,76.89,0.69
550,mantua,0.0,IT,1553392249,61.0,45.16,10.79,,,52.0,3.36
551,pachino,0.0,IT,1553392690,100.0,36.72,15.09,,,56.19,6.17
552,cockburn harbour,,,,,,,,,,
553,florence,1.0,US,1553392504,57.0,34.8,-87.68,,,57.99,6.29
554,tromso,75.0,NO,1553392200,86.0,69.65,18.96,,,33.8,3.36
555,hudiksvall,0.0,SE,1553392691,72.0,61.73,17.1,,,37.56,18.37
556,la palma,76.0,CO,1553392692,96.0,5.36,-74.39,,,67.62,0.69
557,marechal candido rondon,32.0,BR,1553392677,89.0,-24.56,-54.06,,,66.9,5.39
558,manakara,44.0,MG,1553392692,100.0,-22.14,48.01,,,72.57,9.75
559,praia da vitoria,20.0,PT,1553391911,71.0,38.73,-27.07,,,55.4,27.54
560,longview,90.0,US,1553392530,49.0,32.5,-94.74,,,70.0,5.82
561,ixtapa,5.0,MX,1553392520,78.0,20.71,-105.21,,,77.0,9.17
562,iranshahr,12.0,IR,1553392693,84.0,27.21,60.69,,,55.02,3.38
563,arlit,56.0,NE,1553392465,31.0,18.74,7.39,,,67.53,4.27
564,la seyne-sur-mer,0.0,FR,1553392654,86.0,43.1,5.88,,,52.0,2.24
565,atherton,48.0,GB,1553392407,86.0,53.52,-2.49,,,44.6,1.12
566,guarapari,75.0,BR,1553391282,83.0,-20.67,-40.5,,,78.01,5.82
567,nabire,44.0,ID,1553392693,80.0,-3.36,135.5,,,78.6,2.71
568,xining,24.0,CN,1553392132,38.0,36.62,101.77,,,35.85,2.04
569,alexandria,1.0,US,1553392687,48.0,31.31,-92.44,,,66.2,9.19
570,kaya,,,,,,,,,,
571,tamandare,48.0,BR,1553392694,97.0,-8.28,-70.75,,,73.38,1.92
572,nichinan,20.0,JP,1553392387,100.0,31.65,131.31,,,51.8,6.93
573,drayton valley,64.0,CA,1553392695,89.0,53.22,-114.98,,,33.33,6.51
574,bac lieu,,,,,,,,,,
575,meyungs,,,,,,,,,,
576,pangnirtung,68.0,CA,1553392695,73.0,66.15,-65.72,,,5.16,26.08
577,coquimbo,40.0,CL,1553389200,87.0,-29.95,-71.34,,,57.2,5.82
578,jaru,24.0,BR,1553392695,97.0,-10.43,-62.48,,,72.84,2.15
579,sentyabrskiy,,,,,,,,,,
580,siocon,8.0,PH,1553392696,93.0,11.03,124.04,,,81.12,12.55
581,geraldton,20.0,CA,1553389200,26.0,49.72,-86.95,,,44.6,6.93
582,korla,,,,,,,,,,
583,hit,92.0,IQ,1553392696,81.0,33.64,42.83,,,49.8,4.61
584,tecoanapa,5.0,MX,1553388480,83.0,16.99,-99.26,,,80.6,6.93
585,mineiros,0.0,BR,1553392538,79.0,-17.57,-52.55,,,70.68,7.96
586,san quintin,12.0,PH,1553392697,43.0,17.54,120.52,,,84.54,3.83
587,lana,0.0,IT,1553392618,67.0,46.61,11.16,,,42.01,4.0
588,vallenar,0.0,CL,1553392697,77.0,-28.58,-70.76,,,57.0,2.59
589,kadoma,0.0,ZW,1553392697,85.0,-18.34,29.91,,,63.57,11.43
590,ballina,44.0,IE,1553392692,88.0,54.11,-9.15,,,44.01,3.0
591,iacu,92.0,BR,1553392698,94.0,-12.77,-40.21,,,73.74,1.81
592,sambava,8.0,MG,1553392698,100.0,-14.27,50.17,,,80.4,12.66
593,koygorodok,0.0,RU,1553392698,85.0,60.44,51.01,,,24.6,6.73
594,naze,80.0,NG,1553392386,93.0,5.43,7.07,,,74.1,2.71
595,amapa,20.0,HN,1553389200,65.0,15.09,-87.97,,,77.0,9.17
